,City,Country,Lat,Lng,Max Temp,Humidity,Cloudiness,Wind Speed,Current Description
0,Lavrentiya,RU,65.5833,-171.0,31.44,90,97,9.66,overcast clouds
1,Dwarka,IN,22.2394,68.9678,88.27,68,0,18.61,clear sky
2,Ushuaia,AR,-54.8,-68.3,37.06,75,0,4.61,clear sky
3,Vao,NC,-22.6667,167.4833,74.57,75,100,25.3,overcast clouds
4,Katherine,AU,-14.4667,132.2667,98.92,30,40,16.11,scattered clouds
5,Busselton,AU,-33.65,115.3333,67.59,52,2,5.5,clear sky
6,Atuona,PF,-9.8,-139.0333,79.27,75,100,15.73,overcast clouds
7,Barrow,US,71.2906,-156.7887,18.21,90,76,7.63,broken clouds
8,Rikitea,PF,-23.1203,-134.9692,76.95,69,100,16.69,overcast clouds
9,Punta Arenas,CL,-53.15,-70.9167,32.11,86,0,8.05,clear sky
10,Bure,ET,10.7,37.0667,74.91,23,15,0.72,few clouds
11,Yar-Sale,RU,66.8333,70.8333,28.6,81,75,18.79,broken clouds
12,Vanavara,RU,60.34,102.2797,57.63,70,63,13.11,broken clouds
13,Severo-Kurilsk,RU,50.6789,156.125,35.24,80,94,18.1,overcast clouds
14,Cabo Rojo,PR,18.0866,-67.1457,77.68,80,82,6.69,broken clouds
15,Mar Del Plata,AR,-38.0023,-57.5575,44.87,74,0,3.44,clear sky
16,Cherskiy,RU,68.75,161.3,14.0,88,83,5.53,broken clouds
17,Binzhou,CN,37.3667,118.0167,65.62,15,99,10.87,overcast clouds
18,Butaritari,KI,3.0707,172.7902,81.3,80,37,10.13,light rain
19,Pocatello,US,42.8713,-112.4455,40.89,48,15,5.01,few clouds
20,San Patricio,US,28.017,-97.5169,77.09,90,4,13.27,clear sky
21,Slave Lake,CA,55.2834,-114.769,31.98,93,0,2.3,clear sky
22,Necochea,AR,-38.5473,-58.7368,42.55,66,24,7.25,few clouds
23,Leningradskiy,RU,69.3833,178.4167,18.68,89,98,13.29,overcast clouds
24,Korem,ET,12.5058,39.5228,60.15,68,88,6.02,light rain
25,Sao Filipe,CV,14.8961,-24.4956,71.2,70,31,7.31,scattered clouds
26,Dunedin,NZ,-45.8742,170.5036,56.8,81,71,10.0,broken clouds
27,Richards Bay,ZA,-28.783,32.0377,71.46,81,88,12.37,moderate rain
28,Half Moon Bay,US,37.4636,-122.4286,58.33,66,0,14.97,clear sky
29,Badou,TG,7.5833,0.6,73.63,88,100,2.86,overcast clouds
30,Elizabeth City,US,36.2946,-76.2511,53.62,90,57,2.84,broken clouds
31,Baykit,RU,61.67,96.37,42.98,72,74,12.39,broken clouds
32,Broken Hill,AU,-31.95,141.4333,64.11,55,83,8.05,broken clouds
33,Lysa Hora,UA,48.1706,31.1099,52.66,63,11,4.47,few clouds
34,Arraial Do Cabo,BR,-22.9661,-42.0278,74.8,86,3,5.97,clear sky
35,Wiarton,CA,44.7407,-81.1332,37.49,80,0,3.44,clear sky
36,Port Elizabeth,ZA,-33.918,25.5701,62.31,70,0,13.8,clear sky
37,Vaini,TO,-21.2,-175.2,75.36,100,100,8.05,light rain
38,Khatanga,RU,71.9667,102.5,15.82,86,99,17.07,overcast clouds
39,Narsaq,GL,60.9167,-46.05,36.25,89,100,2.42,overcast clouds
40,Kavaratti,IN,10.5669,72.642,86.09,73,100,10.78,overcast clouds
41,Hasaki,JP,35.7333,140.8333,59.4,54,14,17.07,few clouds
42,Rabat,MA,33.9911,-6.8401,59.16,71,0,8.05,clear sky
43,Thompson,CA,55.7435,-97.8558,37.56,70,75,3.44,broken clouds
44,Fortuna,US,40.5982,-124.1573,54.93,81,100,0.0,overcast clouds
45,Yeppoon,AU,-23.1333,150.7333,82.18,75,28,13.29,scattered clouds
46,Campbell River,CA,50.0163,-125.2446,49.53,82,100,1.81,overcast clouds
47,Castro,BR,-24.7911,-50.0119,56.8,97,100,7.25,overcast clouds
48,Matara,LK,5.9485,80.5353,90.28,61,72,11.18,broken clouds
49,Kirakira,SB,-10.4544,161.9205,82.78,77,100,2.48,overcast clouds
50,Kahului,US,20.8947,-156.47,75.85,85,99,7.0,overcast clouds
51,Kargasok,RU,59.0556,80.8572,42.62,61,98,8.12,overcast clouds
52,Bluff,NZ,-46.6,168.3333,57.97,81,97,11.25,overcast clouds
53,Tasiilaq,GL,65.6145,-37.6368,29.35,89,76,7.74,broken clouds
54,Ancud,CL,-41.8697,-73.8203,42.62,82,70,1.43,broken clouds
55,Vanimo,PG,-2.6741,141.3028,82.47,78,99,6.17,overcast clouds
56,Provideniya,RU,64.3833,-173.3,32.38,91,100,12.57,overcast clouds
57,Ambon,ID,-3.6954,128.1814,93.34,59,40,5.75,scattered clouds
58,Talnakh,RU,69.4865,88.3972,20.21,88,87,7.92,overcast clouds
59,La Ronge,CA,55.1001,-105.2842,39.45,65,40,2.3,scattered clouds
60,Katobu,ID,-4.9408,122.5276,84.24,71,99,6.69,moderate rain
61,Saposoa,PE,-6.934,-76.7716,69.44,99,98,1.14,overcast clouds
62,Oktyabrskoye,RU,43.0645,44.7417,57.34,87,75,2.24,broken clouds
63,Sohag,EG,26.557,31.6948,88.09,8,24,14.79,few clouds
64,Puerto Ayora,EC,-0.7393,-90.3518,70.9,92,40,5.14,scattered clouds
65,Kapaa,US,22.0752,-159.319,75.11,84,75,17.27,broken clouds
66,Margate,GB,51.3813,1.3862,47.3,77,30,4.0,scattered clouds
67,Albany,US,42.6001,-73.9662,40.93,47,0,5.41,clear sky
68,Hualmay,PE,-11.0964,-77.6139,65.95,89,98,7.02,overcast clouds
69,Svetlaya,RU,46.5389,138.3297,44.38,65,50,9.08,scattered clouds
70,Clyde River,CA,70.4692,-68.5914,-0.17,78,75,9.22,broken clouds
71,Bredasdorp,ZA,-34.5322,20.0403,55.06,83,17,6.69,few clouds
72,Saint-Joseph,RE,-21.3667,55.6167,81.21,74,20,9.48,few clouds
73,Dikson,RU,73.5069,80.5464,20.61,90,100,21.16,overcast clouds
74,Lazaro Cardenas,MX,17.9583,-102.2,75.2,77,14,3.29,few clouds
75,Duayaw Nkwanta,GH,7.1724,-2.1028,70.7,96,54,2.28,broken clouds
76,Chabahar,IR,25.2919,60.643,90.68,57,15,13.89,few clouds
77,Nyurba,RU,63.2842,118.3319,41.13,90,99,11.21,overcast clouds
78,Cidreira,BR,-30.1811,-50.2056,59.85,67,0,4.76,clear sky
79,Lasa,IT,46.6166,10.7002,49.08,96,100,3.27,overcast clouds
80,Gornopravdinsk,RU,60.05,69.9,39.38,44,33,6.51,scattered clouds
81,Ajmer,IN,26.45,74.6333,98.89,19,0,6.29,clear sky
82,Avarua,CK,-21.2078,-159.775,78.85,89,20,6.91,few clouds
83,Bastrop,US,32.7562,-91.8724,67.71,76,0,3.0,clear sky
84,Saint George,US,37.1041,-113.5841,66.79,21,0,11.5,clear sky
85,Coihaique,CL,-45.5752,-72.0662,37.35,100,20,1.14,light rain
86,Nikolskoye,RU,59.7035,30.7861,38.88,50,13,6.78,few clouds
87,Ahipara,NZ,-35.1667,173.1667,62.49,78,37,9.33,scattered clouds
88,Tuktoyaktuk,CA,69.4541,-133.0374,24.8,86,20,4.61,few clouds
89,Yumen,CN,40.2833,97.2,56.7,18,65,5.93,broken clouds
90,Luderitz,NA,-26.6481,15.1594,56.48,63,0,12.39,clear sky
91,Brazzaville,CG,-4.2658,15.2832,73.76,94,20,4.61,few clouds
92,Antalaha,MG,-14.9003,50.2788,80.89,64,57,7.18,broken clouds
93,Cortez,US,37.3489,-108.5859,45.03,34,1,6.93,clear sky
94,Houma,US,29.5958,-90.7195,66.99,89,0,4.61,clear sky
95,Airai,TL,-8.9266,125.4092,76.1,49,81,3.33,broken clouds
96,Grand-Bourg,GP,15.8835,-61.3148,75.15,79,87,14.38,overcast clouds
97,Faanui,PF,-16.4833,-151.75,81.54,72,10,17.36,clear sky
98,Husavik,IS,66.0449,-17.3389,41.63,84,39,8.08,scattered clouds
99,Russell,US,32.3502,-85.1999,70.88,88,75,0.0,broken clouds
100,Kenai,US,60.5544,-151.2583,44.69,56,0,6.91,clear sky
101,Cape Town,ZA,-33.9258,18.4232,56.12,93,10,6.91,fog
102,Mataura,NZ,-46.1927,168.8643,52.32,86,89,3.04,overcast clouds
103,Sorong,ID,-0.8833,131.25,84.2,74,91,8.93,overcast clouds
104,Lebu,CL,-37.6167,-73.65,48.02,82,0,14.03,clear sky
105,Zhezkazgan,KZ,47.8043,67.7144,71.58,28,0,8.95,clear sky
106,Victoria,HK,22.2855,114.1577,83.97,83,100,18.01,overcast clouds
107,Esperance,AU,-33.8667,121.9,69.64,58,20,6.51,few clouds
108,Cabo San Lucas,MX,22.8909,-109.9124,74.61,60,15,13.47,few clouds
109,Yellowknife,CA,62.456,-114.3525,27.12,63,20,10.36,few clouds
110,Georgetown,MY,5.4112,100.3354,88.95,70,40,11.99,scattered clouds
111,Jamestown,US,42.097,-79.2353,44.24,55,0,4.61,clear sky
112,Turukhansk,RU,65.8167,87.9833,26.83,73,19,9.66,few clouds
113,Ndjole,GA,-0.1783,10.7649,73.35,91,100,1.36,overcast clouds
114,East London,ZA,-33.0153,27.9116,61.74,63,0,13.8,clear sky
115,Nanortalik,GL,60.1432,-45.2371,36.68,88,61,5.37,broken clouds
116,Mahebourg,MU,-20.4081,57.7,80.89,65,20,11.5,few clouds
117,Zhangye,CN,38.9342,100.4517,53.64,34,100,8.37,overcast clouds
118,Hobart,AU,-42.8794,147.3294,59.25,56,40,21.85,scattered clouds
119,Seminole,US,28.7086,-81.2081,71.98,87,96,7.07,overcast clouds
120,Enid,US,36.3956,-97.8784,64.56,58,0,20.71,clear sky
121,Kulhudhuffushi,MV,6.6221,73.07,85.96,71,54,10.29,broken clouds
122,Chokurdakh,RU,70.6333,147.9167,23.05,89,17,9.64,few clouds
123,Longyearbyen,SJ,78.2186,15.6401,10.24,67,20,9.22,few clouds
124,Saldanha,ZA,-33.0117,17.9442,48.25,83,49,4.74,scattered clouds
125,Los Llanos De Aridane,ES,28.6585,-17.9182,58.75,88,0,12.66,clear sky
126,Ayan,RU,56.45,138.1667,32.65,96,100,4.79,overcast clouds
127,Ponta Do Sol,PT,32.6667,-17.1,63.72,49,20,2.8,few clouds
128,Buala,SB,-8.145,159.5921,82.29,77,100,2.13,light rain
129,Sitka,US,57.0531,-135.33,43.16,81,67,1.74,broken clouds
130,Rocha,UY,-34.4833,-54.3333,43.9,84,1,2.91,clear sky
131,Kodiak,US,57.79,-152.4072,42.31,87,100,28.77,mist
132,Mana,GF,5.6592,-53.7767,77.88,83,50,11.39,scattered clouds
133,Evanston,US,42.0411,-87.6901,57.36,68,100,7.0,overcast clouds
134,Port Alfred,ZA,-33.5906,26.891,60.19,74,40,5.01,scattered clouds
135,Klaksvik,FO,62.2266,-6.589,45.52,81,100,9.31,overcast clouds
136,Torbay,CA,47.6666,-52.7314,39.76,95,100,3.44,fog
137,Broome,US,42.2506,-75.833,36.0,70,0,1.01,clear sky
138,New Norfolk,AU,-42.7826,147.0587,58.91,61,39,3.0,scattered clouds
139,Mocuba,MZ,-16.8392,36.9856,69.06,79,2,5.12,clear sky
140,Licata,IT,37.1071,13.9461,63.23,65,56,4.7,broken clouds
141,Tahta,EG,26.7693,31.5021,89.17,8,9,13.53,clear sky
142,Cabras,IT,39.93,8.5314,59.86,57,0,4.16,clear sky
143,Kaka,TM,37.3482,59.6143,91.09,20,76,17.36,broken clouds
144,Muros,ES,42.7762,-9.0603,52.09,92,23,3.83,few clouds
145,Tura,IN,25.5198,90.2201,87.17,51,87,1.95,overcast clouds
146,Qaanaaq,GL,77.484,-69.3632,8.87,73,68,7.27,broken clouds
147,Semnan,IR,35.5729,53.3971,63.14,63,100,4.5,light rain
148,Puerto Baquerizo Moreno,EC,-0.9,-89.6,71.01,91,66,7.29,broken clouds
149,Buraydah,SA,26.326,43.975,75.65,31,0,4.56,clear sky
150,Urucui,BR,-7.2294,-44.5561,74.52,55,82,2.59,broken clouds
151,Samarai,PG,-10.6167,150.6667,82.6,77,43,6.76,scattered clouds
152,Mount Isa,AU,-20.7333,139.5,89.37,27,10,14.97,clear sky
153,Bugiri,UG,0.5714,33.7417,69.93,84,92,4.99,overcast clouds
154,Mayo,US,38.8876,-76.5119,52.39,85,0,6.91,clear sky
155,Batagay-Alyta,RU,67.8006,130.4114,28.02,76,23,12.21,few clouds
156,Axim,GH,4.8699,-2.2405,78.64,88,98,5.12,overcast clouds
157,Tiksi,RU,71.6872,128.8694,35.44,74,97,17.76,overcast clouds
158,Nakamura,JP,32.9833,132.9333,63.93,57,81,6.11,broken clouds
159,Cockburn Town,TC,21.4612,-71.1419,77.05,68,100,18.75,overcast clouds
160,Lompoc,US,34.6391,-120.4579,62.78,86,0,11.5,clear sky
161,Touros,BR,-5.1989,-35.4608,74.57,85,95,9.33,overcast clouds
162,Chuy,UY,-33.6971,-53.4616,48.11,79,14,3.8,few clouds
163,Luganville,VU,-15.5333,167.1667,79.34,84,96,5.57,light rain
164,Port-Cartier,CA,50.0334,-66.8654,34.75,84,100,10.92,overcast clouds
165,Bengkulu,ID,-3.8004,102.2655,85.26,69,15,8.28,moderate rain
166,Svetlyy,RU,54.675,20.1347,44.65,57,96,8.01,overcast clouds
167,Lima,PE,-12.0432,-77.0282,67.89,78,0,8.05,clear sky
168,Xining,CN,36.6167,101.7667,39.56,65,100,10.27,overcast clouds
169,Pevek,RU,69.7008,170.3133,17.47,87,100,9.37,overcast clouds
170,Kavieng,PG,-2.5744,150.7967,83.88,69,80,3.27,light rain
171,Riyadh,SA,24.6877,46.7219,71.74,30,1,6.8,clear sky
172,Sur,OM,22.5667,59.5289,99.21,31,3,3.18,clear sky
173,Fort Nelson,CA,58.8053,-122.7002,35.19,69,0,2.3,clear sky
174,Cortes,ES,41.9395,-1.4396,57.25,81,100,11.88,overcast clouds
175,Katsuura,JP,35.1333,140.3,54.88,62,18,18.54,few clouds
176,Xinyang,CN,32.1228,114.0656,61.83,64,100,9.98,light rain
177,Hithadhoo,MV,-0.6,73.0833,85.05,72,48,11.43,scattered clouds
178,Atar,MR,20.5169,-13.0499,70.25,24,55,8.93,broken clouds
179,Suntar,RU,62.1444,117.6319,40.26,89,100,9.86,overcast clouds
180,Bolobo,CD,-2.1667,16.2333,71.15,91,100,2.15,overcast clouds
181,Caconda,AO,-13.7333,15.0667,56.91,80,8,4.9,clear sky
182,Port Lincoln,AU,-34.7333,135.8667,64.54,58,52,14.2,broken clouds
183,Jumla,NP,29.2747,82.1838,71.8,28,76,4.85,broken clouds
184,Tashtyp,RU,52.7939,89.8983,72.25,23,100,2.42,overcast clouds
185,Grindavik,IS,63.8424,-22.4338,43.27,87,75,5.75,broken clouds
186,Lagoa,PT,39.05,-27.9833,60.48,87,14,19.06,few clouds
187,Sao Francisco,BR,-15.9486,-44.8644,64.26,67,7,2.95,light rain
188,Lerwick,GB,60.1545,-1.1494,44.6,73,100,6.85,overcast clouds
189,Zaragoza,ES,41.6561,-0.8773,60.03,61,0,9.22,clear sky
190,Poum,NC,-20.2333,164.0167,77.13,73,40,9.66,scattered clouds
191,Medina Del Campo,ES,41.3124,-4.9141,49.6,75,98,3.85,overcast clouds
192,Wagar,SD,16.1525,36.2032,88.02,26,5,11.86,clear sky
193,Opuwo,NA,-18.0607,13.84,70.02,49,78,5.44,broken clouds
194,Panzhihua,CN,26.5851,101.7128,91.96,19,6,2.51,clear sky
195,Flin Flon,CA,54.7682,-101.865,31.39,99,39,2.86,scattered clouds
196,Upernavik,GL,72.7868,-56.1549,6.73,82,99,8.77,overcast clouds
197,Marion,US,39.7684,-86.1555,59.52,72,0,5.75,clear sky
198,Plettenberg Bay,ZA,-34.0527,23.3716,58.87,75,36,10.56,scattered clouds
199,Cayenne,GF,4.9333,-52.3333,81.09,1,100,5.99,overcast clouds
200,Asfi,MA,32.2994,-9.2372,61.59,71,89,6.62,overcast clouds
201,Bathsheba,BB,13.2167,-59.5167,81.21,89,75,13.8,broken clouds
202,San Quintin,MX,30.4833,-115.95,57.13,85,1,5.5,clear sky
203,Angoche,MZ,-16.2325,39.9086,73.09,75,4,10.02,clear sky
204,Faya,SA,18.3851,42.4509,68.52,34,24,3.6,few clouds
205,Hilo,US,19.7297,-155.09,74.28,99,100,1.01,moderate rain
206,Saint-Philippe,RE,-21.3585,55.7679,82.22,77,43,14.27,scattered clouds
207,Kaitangata,NZ,-46.2817,169.8464,52.66,86,81,3.31,broken clouds
208,Yulara,AU,-25.2406,130.9889,73.24,43,100,17.27,overcast clouds
209,Toppenish,US,46.3774,-120.3087,55.35,52,100,4.05,overcast clouds
210,Saint-Pierre,RE,-21.3393,55.4781,82.29,68,0,3.44,clear sky
211,Namibe,AO,-15.1961,12.1522,72.41,76,49,1.1,scattered clouds
212,Iranshahr,IR,27.2025,60.6848,91.74,17,0,0.0,clear sky
213,Mecca,SA,21.4267,39.8261,91.87,27,0,1.52,clear sky
214,Bethel,US,41.3712,-73.414,47.48,64,0,5.57,clear sky
215,Constancia,MX,24.2231,-107.1869,67.98,56,2,5.26,clear sky
216,Mehran,IR,33.1222,46.1646,80.02,40,14,3.18,few clouds
217,Saint Anthony,US,45.0205,-93.218,54.25,81,100,18.41,overcast clouds
218,Tarko-Sale,RU,64.9225,77.785,26.1,79,24,12.08,few clouds
219,Bambous Virieux,MU,-20.3428,57.7575,80.85,65,20,11.5,few clouds
220,Hermanus,ZA,-34.4187,19.2345,52.81,81,32,6.89,scattered clouds
221,Port Hardy,CA,50.6996,-127.4199,50.18,71,100,10.36,overcast clouds
222,Zhigansk,RU,66.7697,123.3711,34.27,91,55,26.4,broken clouds
223,Kizukuri,JP,40.8061,140.3861,59.41,41,24,9.22,few clouds
224,Sosnytsya,UA,51.5239,32.4999,48.45,59,80,5.19,broken clouds
225,Manavalakurichi,IN,8.1333,77.3,89.26,67,98,14.65,overcast clouds
226,Ribeira Grande,PT,38.5167,-28.7,61.54,87,12,14.76,few clouds
227,Zvishavane,ZW,-20.3267,30.0665,61.09,62,0,3.53,clear sky
228,Alice Springs,AU,-23.7,133.8833,76.55,44,35,17.27,scattered clouds
229,Hovd,MN,48.0056,91.6419,60.89,14,1,7.47,clear sky
230,Praia,CV,14.9215,-23.5087,68.54,73,20,14.97,few clouds
231,Purpe,RU,64.4803,76.6897,26.2,79,29,11.79,scattered clouds
232,Troitskoye,RU,52.9821,84.6757,71.8,29,100,6.55,overcast clouds
233,Vila Franca Do Campo,PT,37.7167,-25.4333,66.2,94,38,7.07,scattered clouds
234,Ostrovnoy,RU,68.0531,39.5131,23.54,85,82,18.7,broken clouds
235,Jaroslaw,PL,50.0162,22.6778,46.8,72,94,3.83,overcast clouds
236,Bud,US,39.447,-86.1758,59.83,72,100,12.53,overcast clouds
237,Udachnyy,RU,66.4167,112.4,39.45,86,100,7.72,light rain
238,Salta,AR,-24.7859,-65.4117,55.99,85,100,3.44,overcast clouds
239,Davenda,RU,53.5556,119.317,46.69,20,63,5.75,broken clouds
240,Caravelas,BR,-17.7125,-39.2481,71.96,90,18,1.97,few clouds
241,Camacha,PT,33.0833,-16.3333,58.42,82,20,5.75,few clouds
242,Payson,US,40.0444,-111.7321,46.42,41,1,5.01,clear sky
243,Flinders,AU,-34.5833,150.8552,71.19,59,97,8.01,overcast clouds
244,Limulunga,ZM,-15.0969,23.1376,63.63,64,5,4.34,clear sky
245,Tautira,PF,-17.7333,-149.15,80.04,75,25,18.57,light rain
246,Grand Gaube,MU,-20.0064,57.6608,81.0,62,2,7.0,clear sky
247,Tazovskiy,RU,67.4667,78.7,24.76,84,44,16.44,scattered clouds
248,Minden,DE,52.2833,8.9167,44.98,92,75,2.3,broken clouds
249,Belaya Gora,RU,68.5333,146.4167,27.16,78,58,6.96,broken clouds
250,Hambantota,LK,6.1241,81.1185,89.94,70,20,4.61,few clouds
251,Tezu,IN,27.9167,96.1667,81.64,59,100,1.45,overcast clouds
252,Yerbogachen,RU,61.2767,108.0108,48.24,88,100,13.87,overcast clouds
253,Sao Joao Da Barra,BR,-21.6403,-41.0511,71.4,91,2,6.11,clear sky
254,Oum Hadjer,TD,13.2954,19.6966,91.22,16,91,8.23,overcast clouds
255,Petropavlovsk-Kamchatskiy,RU,53.0452,158.6483,41.59,52,75,13.42,broken clouds
256,Prince George,CA,53.9166,-122.753,42.24,65,0,9.22,clear sky
257,Celendin,PE,-6.8703,-78.1517,51.17,88,100,0.67,overcast clouds
258,Somerset,US,40.5668,-74.5496,51.62,40,5,1.01,clear sky
259,Mbaiki,CF,3.8678,17.9892,72.46,75,84,2.46,broken clouds
260,Kashi,CN,39.4547,75.9797,65.41,22,75,8.95,dust
261,Carutapera,BR,-1.195,-46.02,75.0,94,91,4.76,overcast clouds
262,Aklavik,CA,68.2191,-135.0107,29.98,93,54,9.86,broken clouds
263,Carndonagh,IE,55.25,-7.2667,49.62,95,100,4.85,moderate rain
264,Zubova Polyana,RU,54.0771,42.8372,47.98,52,16,7.2,few clouds
265,Bagan,RU,54.1001,77.6646,77.32,21,57,8.28,broken clouds
266,Kruisfontein,ZA,-34.0033,24.7314,58.89,75,36,12.12,scattered clouds
267,Dicabisagan,PH,17.0818,122.4157,86.83,67,82,8.23,broken clouds
268,Dorogino,RU,54.3598,83.3198,69.8,26,85,14.29,overcast clouds
269,Taua,BR,-5.9667,-40.3,70.0,70,100,5.5,overcast clouds
270,Doka,SD,13.5167,35.7667,93.38,7,12,8.3,few clouds
271,Brae,GB,60.3964,-1.353,44.17,75,100,6.04,overcast clouds
272,Awjilah,LY,29.1081,21.2869,68.13,53,0,8.43,clear sky
273,Uvat,RU,59.1433,68.8953,41.56,37,23,6.51,few clouds
274,Dombarovskiy,RU,50.7587,59.5386,61.99,52,99,8.1,overcast clouds
275,Merauke,ID,-8.4667,140.3333,83.75,72,43,9.89,scattered clouds
276,Carnarvon,AU,-24.8667,113.6333,87.87,27,0,17.27,clear sky
277,Mikkeli,FI,61.6886,27.2723,36.14,69,0,9.22,clear sky
278,Jibuti,DJ,11.5,42.5,83.08,62,54,10.89,broken clouds
279,Hamilton,US,39.1834,-84.5333,59.88,62,100,3.0,moderate rain
280,San Ignacio,BZ,17.1561,-89.0714,77.14,88,0,0.0,clear sky
281,Beboto,TD,8.2668,16.939,79.21,66,99,6.31,overcast clouds
282,Port Shepstone,ZA,-30.7414,30.455,65.57,71,97,16.04,overcast clouds
283,Kamiiso,JP,41.8167,140.65,61.18,18,20,25.32,few clouds
284,Gigmoto,PH,13.7796,124.39,85.51,70,92,6.87,overcast clouds
285,Simao,CN,22.7886,100.9748,91.96,20,25,5.84,scattered clouds
286,Oranjemund,NA,-28.55,16.4333,53.1,84,0,7.83,clear sky
287,Mabaruma,GY,8.2,-59.7833,72.63,99,64,2.35,broken clouds
288,Gouloure,BF,12.2306,-1.9289,82.71,46,81,7.99,broken clouds
289,Barcelos,PT,41.5388,-8.6151,57.85,79,10,3.56,clear sky
290,Nemuro,JP,43.3236,145.575,40.87,62,41,11.52,scattered clouds
291,Harper,LR,4.375,-7.7169,78.89,84,57,5.99,light rain
292,Qostanay,KZ,53.1667,63.5833,55.69,50,0,20.13,clear sky
293,Jingdezhen,CN,29.2947,117.2079,63.86,78,100,1.97,moderate rain
294,Robertsonpet,IN,12.9667,78.2833,95.74,25,41,6.06,scattered clouds
295,Ilulissat,GL,69.2167,-51.1,12.81,92,100,11.01,light snow
296,Pringsewu,ID,-5.3582,104.9744,89.76,59,99,3.8,overcast clouds
297,Dong Hoi,VN,17.4833,106.6,79.14,86,100,6.62,overcast clouds
298,Albina,SR,5.5,-54.05,72.95,94,54,2.08,broken clouds
299,Saskylakh,RU,71.9167,114.0833,24.46,90,98,17.45,overcast clouds
300,Honningsvag,NO,70.9821,25.9704,28.15,69,100,18.41,overcast clouds
301,Chapleau,CA,47.8405,-83.4034,32.13,87,62,5.53,broken clouds
302,Ust-Ishim,RU,57.6935,71.1665,43.68,42,63,8.21,broken clouds
303,Havre-Saint-Pierre,CA,50.2334,-63.5986,32.36,86,100,18.41,overcast clouds
304,Hvide Sande,DK,56.0045,8.1294,46.09,74,14,13.47,few clouds
305,Shiyan,CN,32.6475,110.7781,62.56,74,100,6.85,moderate rain
306,Hanzhong,CN,33.0728,107.0303,59.83,60,100,5.88,light rain
307,Antofagasta,CL,-23.65,-70.4,58.28,82,100,5.06,overcast clouds
308,Naqadeh,IR,36.9553,45.388,62.51,53,29,1.41,scattered clouds
309,Kampong Cham,KH,11.9934,105.4635,92.17,47,84,6.53,broken clouds
310,Parati,BR,-23.2178,-44.7131,72.19,99,94,2.19,light rain
311,Vila,PT,42.0304,-8.1588,54.7,76,34,2.17,scattered clouds
312,Komsomolskiy,UZ,40.4272,71.7189,79.52,41,29,6.91,scattered clouds
313,Sanary-Sur-Mer,FR,43.1178,5.8001,55.92,61,93,2.73,overcast clouds
314,Lorengau,PG,-2.0226,147.2712,82.09,77,82,3.02,broken clouds
315,Lowestoft,GB,52.4752,1.7516,44.02,88,3,7.87,clear sky
316,Isangel,VU,-19.55,169.2667,76.73,81,99,24.9,overcast clouds
317,Inuvik,CA,68.3499,-133.7218,40.06,58,20,3.44,few clouds
318,Morgan City,US,29.6994,-91.2068,64.99,100,0,5.75,clear sky
319,Surt,LY,31.2089,16.5887,64.15,78,84,7.9,broken clouds
320,Coquimbo,CL,-29.9533,-71.3436,58.73,77,100,1.14,overcast clouds
321,Azul,AR,-36.777,-59.8585,41.34,57,82,2.28,broken clouds
322,Treia,IT,43.3106,13.3115,53.51,65,0,3.44,clear sky
323,Sinnamary,GF,5.3833,-52.95,78.62,78,73,11.88,broken clouds
324,Tyrma,RU,50.0833,132.1667,53.98,31,98,9.33,overcast clouds
325,Marystown,CA,47.1666,-55.1483,43.86,100,100,5.01,overcast clouds
326,Sangareddi,IN,17.6294,78.0917,98.92,14,10,6.06,clear sky
327,Maarianhamina,AX,60.0973,19.9348,40.86,65,0,3.44,clear sky
328,Ust-Koksa,RU,50.2696,85.6108,63.81,26,98,2.42,overcast clouds
329,Telimele,GN,10.9167,-13.3333,72.14,74,100,1.99,overcast clouds
330,Puerto Escondido,MX,15.85,-97.0667,82.08,70,78,7.45,broken clouds
331,Shenjiamen,CN,29.9576,122.298,56.46,77,100,9.4,overcast clouds
332,Holme,DK,56.1138,10.1725,40.57,92,18,5.26,few clouds
333,Warrington,GB,53.3925,-2.5802,44.46,82,0,3.44,clear sky
334,Kurilsk,RU,45.2333,147.8833,32.97,84,100,15.59,overcast clouds
335,Bowral,AU,-34.4667,150.4167,63.14,65,89,12.17,overcast clouds
336,Jaque,PA,7.5175,-78.1703,79.02,86,98,3.58,light rain
337,Yeroham,IL,30.9872,34.9314,86.88,11,31,17.09,scattered clouds
338,Laguna,US,38.421,-121.4238,62.94,61,0,5.75,clear sky
339,Geraldton,AU,-28.7667,114.6,81.01,26,0,6.91,clear sky
340,Bulanash,RU,57.2783,61.9965,43.03,34,1,5.44,clear sky
341,Ulaangom,MN,49.9811,92.0667,64.99,16,17,12.24,few clouds
342,Ambilobe,MG,-13.2,49.05,80.47,72,88,3.76,overcast clouds
343,Qaqortoq,GL,60.7167,-46.0333,35.26,92,82,0.47,broken clouds
344,Havoysund,NO,70.9963,24.6622,28.63,72,100,17.85,light snow
345,Matagami,CA,49.7502,-77.6328,26.71,80,0,0.0,clear sky
346,Aitape,PG,-3.1374,142.3475,83.43,73,89,6.82,overcast clouds
347,Vila Velha,BR,-20.3297,-40.2925,70.95,93,0,2.3,clear sky
348,Maturin,VE,9.75,-63.1767,73.71,96,90,3.65,overcast clouds
349,Kainantu,PG,-6.2887,145.8655,72.7,69,98,2.46,overcast clouds
350,Borovskoy,KZ,53.8,64.15,49.82,55,67,17.27,broken clouds
351,Rio Gallegos,AR,-51.6226,-69.2181,30.25,93,0,3.44,clear sky
352,Christchurch,NZ,-43.5333,172.6333,57.94,83,4,9.22,clear sky
353,Tiarei,PF,-17.5333,-149.3333,80.62,74,13,18.75,light rain
354,Santa Rosa,PH,14.3122,121.1114,94.98,64,100,13.67,overcast clouds
355,Salinopolis,BR,-0.6136,-47.3561,77.9,88,99,8.39,overcast clouds
356,Aberdeen,GB,57.1437,-2.0981,45.19,95,100,10.36,overcast clouds
357,Iwanai,JP,42.9744,140.5089,51.12,49,1,10.2,clear sky
358,Paracuru,BR,-3.41,-39.0306,74.1,87,100,8.28,overcast clouds
359,Tevaitoa,PF,-16.7833,-151.5,80.8,74,15,17.49,light rain
360,Hami,CN,42.8,93.45,68.43,11,1,4.0,clear sky
361,South Lake Tahoe,US,38.9332,-119.9844,49.35,62,25,1.01,scattered clouds
362,Maputo,MZ,-25.9653,32.5892,65.23,82,20,5.99,few clouds
363,Norman Wells,CA,65.282,-126.8329,39.24,56,20,5.75,few clouds
364,Marawi,PH,7.9986,124.2928,77.9,81,63,6.11,light rain
365,Stromness,GB,58.965,-3.296,44.87,91,100,11.99,overcast clouds
366,Bandundu,CD,-3.3167,17.3667,72.45,93,99,1.74,overcast clouds
367,Ararangua,BR,-28.9347,-49.4858,61.25,71,99,0.6,overcast clouds
368,Kilindoni,TZ,-7.9139,39.6668,80.19,74,64,16.91,broken clouds
369,Turayf,SA,31.6725,38.6637,70.05,64,0,18.41,clear sky
370,Souillac,MU,-20.5167,57.5167,80.98,65,20,11.5,few clouds
371,Maralal,KE,1.0968,36.698,65.16,63,82,5.88,broken clouds
372,Krasnoselkup,RU,65.7,82.4667,26.17,71,4,10.94,clear sky
373,Solwezi,ZM,-12.1688,26.3894,60.89,85,100,4.43,overcast clouds
374,Aksu,CN,41.1231,80.2644,66.99,24,93,4.41,overcast clouds
375,Teplyk,UA,48.6657,29.745,51.76,74,34,3.53,scattered clouds
376,Ciudad Bolivar,VE,8.1222,-63.5497,80.19,74,67,9.42,broken clouds
377,Bogo,PH,11.0517,124.0055,87.6,60,49,3.13,scattered clouds
378,Cam Ranh,VN,11.9214,109.1591,78.76,94,40,0.0,scattered clouds
379,Vestmannaeyjar,IS,63.4427,-20.2734,45.07,82,12,11.1,few clouds
380,Ninghai,CN,29.2892,121.4247,58.39,82,100,3.65,light rain
381,Mae Ramat,TH,16.984,98.5166,93.52,36,46,3.62,scattered clouds
382,Mackay,AU,-21.15,149.2,81.68,78,18,17.27,few clouds
383,Marienburg,PL,54.0359,19.0266,47.57,66,88,4.14,overcast clouds
384,Ketchikan,US,55.3422,-131.6461,42.96,73,9,1.92,clear sky
385,Coos Bay,US,43.3665,-124.2179,53.92,99,100,13.8,light rain
386,Saint-Ambroise,CA,48.5501,-71.3324,40.6,48,46,5.75,scattered clouds
387,Killybegs,IE,54.6333,-8.45,48.74,95,100,8.3,moderate rain
388,Whitehorse,CA,60.7161,-135.0538,37.02,87,75,4.61,broken clouds
389,Port Hueneme,US,34.1478,-119.1951,62.96,80,0,0.0,clear sky
390,Ripoll,ES,42.2006,2.1903,53.42,86,89,4.16,overcast clouds
391,Cap-Aux-Meules,CA,47.3821,-61.8597,35.62,100,100,17.27,overcast clouds
392,Tres Arroyos,AR,-38.3739,-60.2798,39.22,56,60,6.42,broken clouds
393,Turbat,PK,26.0023,63.044,105.78,8,5,10.36,clear sky
394,Mbanza-Ngungu,CD,-5.25,14.8667,68.76,96,100,2.66,overcast clouds
395,Cairns,AU,-16.9167,145.7667,80.06,90,100,11.5,overcast clouds
396,Hammerfest,NO,70.6634,23.6821,28.85,86,40,13.8,light snow
397,Port-Gentil,GA,-0.7193,8.7815,76.96,88,100,3.44,thunderstorm with light rain
398,Okhotsk,RU,59.3833,143.3,40.05,77,59,4.0,broken clouds
399,Sal Rei,CV,16.1833,-22.9167,69.37,81,7,15.37,clear sky
400,Nuuk,GL,64.1835,-51.7216,9.68,85,41,9.44,scattered clouds
401,Lebedyn,UA,50.5852,34.4849,50.5,54,17,3.29,few clouds
402,Banda Aceh,ID,5.5577,95.3222,86.32,70,100,10.89,overcast clouds
403,Menongue,AO,-14.6585,17.691,59.52,73,4,3.6,clear sky
404,Nicoya,CR,10.1483,-85.452,78.24,77,99,2.26,overcast clouds
405,Port Talbot,GB,51.5924,-3.7802,45.9,81,90,5.55,overcast clouds
406,Visby,SE,57.6409,18.296,41.83,60,78,12.66,light rain
407,Nizhniy Tsasuchey,RU,50.5167,115.1333,53.15,20,86,11.99,overcast clouds
408,Chimbote,PE,-9.0853,-78.5783,64.85,91,93,4.65,overcast clouds
409,Praia Da Vitoria,PT,38.7333,-27.0667,61.75,88,20,11.52,few clouds
410,Takoradi,GH,4.8845,-1.7554,79.36,86,91,5.37,overcast clouds
411,Beroroha,MG,-21.6667,45.1667,77.68,52,4,4.27,clear sky
412,Mehamn,NO,71.0357,27.8492,28.62,60,100,23.2,overcast clouds
413,Goderich,CA,43.7501,-81.7165,39.9,56,54,6.91,broken clouds
414,Bubaque,GW,11.2833,-15.8333,76.66,66,91,11.36,overcast clouds
415,Doume,CM,4.2333,13.45,69.06,96,52,1.05,broken clouds
416,Lander,US,42.833,-108.7307,36.99,91,75,9.22,broken clouds
417,Sao Felix Do Xingu,BR,-6.6447,-51.995,69.42,93,95,0.87,overcast clouds
418,Dudinka,RU,69.4058,86.1778,20.62,90,100,13.49,overcast clouds
419,Lae,PG,-6.7221,146.9847,92.07,70,91,8.79,overcast clouds
420,Evensk,RU,61.95,159.2333,40.98,62,21,9.15,few clouds
421,Mount Gambier,AU,-37.8333,140.7667,57.11,82,75,19.57,broken clouds
422,Gorontalo,ID,0.5412,123.0595,82.29,86,72,1.7,broken clouds
423,Gizo,SB,-8.103,156.8419,84.11,68,48,4.29,scattered clouds
424,Port Blair,IN,11.6667,92.75,91.44,58,40,4.61,haze
425,Sembe,CG,1.6481,14.5806,71.55,96,91,0.27,light rain
426,Namatanai,PG,-3.6667,152.4333,83.52,71,56,0.83,light rain
427,Colac,AU,-38.3333,143.5833,56.17,56,88,11.5,overcast clouds
428,Mozarlandia,BR,-14.7447,-50.5706,75.72,44,49,2.33,scattered clouds
429,Pinyug,RU,60.251,47.7842,36.18,83,91,12.33,light rain
430,Tuatapere,NZ,-46.1333,167.6833,57.88,78,100,7.23,overcast clouds
431,Macapa,BR,0.0389,-51.0664,76.98,94,0,1.14,clear sky
432,Buritis,BR,-15.6178,-46.4233,64.44,66,6,1.5,clear sky
433,Centralia,US,46.7162,-122.9543,49.44,82,100,1.99,moderate rain
434,Merta,IN,26.65,74.0333,101.62,19,0,9.01,clear sky
435,Ekhabi,RU,53.5102,142.9671,33.42,98,100,10.83,overcast clouds
436,Pinerovka,RU,51.562,43.0689,50.05,62,11,8.1,few clouds
437,Khonsa,IN,27.0167,95.5667,74.64,56,100,3.78,overcast clouds
438,Sakti,IN,22.0333,82.9667,111.06,7,28,8.3,scattered clouds
439,Talcahuano,CL,-36.7167,-73.1167,44.28,87,0,6.91,clear sky
440,Dogondoutchi,NE,13.6393,4.0287,85.66,9,89,6.17,overcast clouds
441,Iqaluit,CA,63.7506,-68.5145,15.53,73,75,10.36,broken clouds
442,Asau,RO,46.4333,26.4,54.95,60,18,3.53,few clouds
443,Le Port,RE,-20.9373,55.2919,82.62,67,12,8.59,few clouds
444,Fairbanks,US,64.8378,-147.7164,36.48,92,29,5.26,scattered clouds
445,Lata,PT,40.1629,-8.3327,53.08,74,2,2.51,clear sky
446,Garissa,KE,-0.4536,39.6401,82.99,62,82,18.3,broken clouds
447,Srednekolymsk,RU,67.45,153.6833,25.38,77,98,6.08,overcast clouds
448,Jieshi,CN,22.8134,115.8257,82.94,75,100,15.3,overcast clouds
449,Snihurivka,UA,47.0758,32.8052,49.41,83,97,13.69,overcast clouds
450,Kallidaikurichchi,IN,8.6667,77.4833,95.95,46,75,6.98,broken clouds
451,Ligayan,PH,4.6533,119.4706,83.97,72,100,5.61,overcast clouds
452,Cape Canaveral,US,28.4058,-80.6048,75.02,74,84,15.7,broken clouds
453,Davila,PH,18.4726,120.5763,89.58,69,91,8.39,overcast clouds
454,Bahia Honda,CU,22.9036,-83.1592,71.85,71,0,7.43,clear sky
455,Jiaocheng,CN,24.6774,116.1389,70.92,86,100,0.07,overcast clouds
456,Skala,PL,50.2305,19.8536,50.79,61,0,1.14,clear sky
457,Champerico,GT,14.3,-91.9167,81.77,75,81,3.69,broken clouds
458,Ano Mera,GR,37.45,25.4,63.66,67,75,26.46,broken clouds
459,Solnechnyy,RU,50.7214,136.6319,39.99,64,40,7.96,scattered clouds
460,Sokone,SN,13.8833,-16.3667,70.02,57,35,5.99,scattered clouds
461,Billings,US,45.7833,-108.5007,40.51,87,98,5.01,overcast clouds
462,Cabra,ES,37.4725,-4.4421,52.63,69,4,3.85,clear sky
463,Toda Raisingh,IN,26.0252,75.4849,104.22,15,0,10.0,clear sky
464,La Asuncion,VE,11.0333,-63.8628,78.87,84,63,15.82,broken clouds
465,Arlit,NE,18.7369,7.3853,84.65,6,100,5.5,overcast clouds
466,Kabalo,CD,-6.05,26.9167,71.64,92,88,3.15,overcast clouds
467,Tabou,CI,4.423,-7.3528,78.98,85,60,6.2,light rain
468,Sabha,LY,27.0377,14.4283,73.9,23,0,16.73,clear sky
469,Anadyr,RU,64.75,177.4833,34.3,86,40,11.18,scattered clouds
470,Sorland,NO,67.667,12.6934,37.2,57,100,15.82,overcast clouds
471,Ulladulla,AU,-35.35,150.4667,70.7,58,69,4.32,broken clouds
472,Kemnay,GB,57.2357,-2.444,45.43,95,100,10.36,overcast clouds
473,Jambi,ID,-1.6,103.6167,87.93,70,95,2.95,overcast clouds
474,Baoro,CF,5.6667,15.9667,68.99,91,82,3.98,broken clouds
475,Santa Barbara,US,34.7333,-120.0343,55.99,87,40,0.0,mist
476,Paamiut,GL,61.994,-49.6678,27.59,95,100,16.62,light snow
477,College,US,64.8569,-147.8028,36.46,92,28,5.1,scattered clouds
478,Malanville,BJ,11.8685,3.3899,84.81,47,94,5.82,overcast clouds
479,Pinawa,CA,50.1489,-95.8811,39.33,98,100,7.61,moderate rain
480,Ridgecrest,US,35.6225,-117.6709,69.66,24,0,3.0,clear sky
481,Kaeo,NZ,-35.1,173.7833,61.32,95,46,9.37,scattered clouds
482,Vieques,PR,18.425,-65.8329,78.12,85,86,11.27,overcast clouds
483,Muisne,EC,0.6,-80.0333,76.91,87,98,5.84,light rain
484,Ca Mau,VN,9.1769,105.15,89.82,54,95,5.82,overcast clouds
485,Jeremoabo,BR,-10.075,-38.4808,66.67,97,55,3.13,broken clouds
486,Bukachacha,RU,52.9833,116.9167,50.56,17,63,6.31,broken clouds
487,Umm Lajj,SA,25.0213,37.2685,89.96,29,0,15.59,clear sky
488,Meulaboh,ID,4.1363,96.1285,86.23,66,100,4.54,overcast clouds
489,Labytnangi,RU,66.6572,66.4183,27.25,74,76,15.88,broken clouds
490,Skjervoy,NO,70.0311,20.9714,32.0,66,100,23.0,light snow
491,Mindelo,CV,16.8901,-24.9804,67.55,73,20,10.36,few clouds
492,Ambulu,ID,-8.345,113.6058,85.24,74,95,1.86,overcast clouds
493,Santa Maria,BR,-29.6842,-53.8069,48.18,91,3,5.57,clear sky
494,Guerrero Negro,MX,27.9769,-114.0611,58.77,82,3,15.57,clear sky
495,Bonito,BR,-21.1211,-56.4819,71.94,79,53,4.83,broken clouds
496,Awbari,LY,26.5921,12.7805,75.52,19,0,16.71,clear sky
497,Iquique,CL,-20.2208,-70.1431,57.24,75,14,4.12,few clouds
498,Maumere,ID,-8.6199,122.2111,86.11,67,93,5.82,overcast clouds
499,Khokhlovo,RU,59.1492,37.3998,37.42,57,92,6.44,light rain
500,Eureka,US,40.8021,-124.1637,55.2,77,99,4.81,overcast clouds
501,Rosarito,MX,32.3333,-117.0333,60.4,76,0,3.76,clear sky
502,Avrille,FR,47.5,-0.5833,45.77,86,85,6.22,overcast clouds
503,Jaicos,BR,-7.3592,-41.1378,69.69,76,74,3.18,broken clouds
504,Padang,ID,-0.9492,100.3543,87.85,66,85,6.11,overcast clouds
505,Uitenhage,ZA,-33.7576,25.3971,61.63,63,12,11.32,few clouds
506,Araripe,BR,-7.2125,-40.0461,66.9,82,88,8.1,light rain
507,Magdagachi,RU,53.45,125.8,45.79,19,74,6.24,broken clouds
508,Severnyy,RU,50.677,36.5532,50.04,46,0,4.47,clear sky
509,Vardo,NO,70.3705,31.1107,29.05,65,100,22.84,light snow
510,Bereda,ES,43.2686,-7.5406,49.57,100,97,0.94,overcast clouds
511,Torbat-E Jam,IR,35.244,60.6225,82.83,21,37,7.11,scattered clouds
512,Teya,RU,60.3778,92.6267,45.25,83,99,6.78,overcast clouds
513,Shakawe,BW,-18.3667,21.85,63.23,50,0,4.79,clear sky
514,Inhambane,MZ,-23.865,35.3833,71.8,77,0,6.38,clear sky
515,Saint-Leu,RE,-21.15,55.2833,81.68,72,6,4.54,clear sky
516,Makakilo City,US,21.3469,-158.0858,73.72,78,75,11.5,broken clouds
517,Uruana,BR,-15.4981,-49.6875,64.6,63,3,2.04,clear sky
518,Pasighat,IN,28.0667,95.3333,81.34,58,100,1.07,light rain
519,Madang,PG,-5.2246,145.7966,83.53,78,93,5.91,overcast clouds
520,Sangar,RU,63.9242,127.4739,35.51,85,54,9.13,broken clouds
521,Puri,IN,19.8,85.85,93.72,79,24,19.22,few clouds
522,Pangnirtung,CA,66.1451,-65.7125,2.32,84,17,8.81,few clouds
523,Staraya Kulatka,RU,52.7167,47.6167,49.08,57,91,10.27,overcast clouds
524,Strezhevoy,RU,60.7333,77.5889,33.64,63,99,8.43,overcast clouds
525,Havelock,US,34.8791,-76.9013,63.93,88,75,2.66,broken clouds
526,San Ramon,US,37.7799,-121.978,58.91,73,96,3.65,overcast clouds
527,Marzuq,YE,14.4,46.4667,81.16,39,1,3.13,clear sky
528,Nizwa,OM,22.9333,57.5333,94.57,26,9,12.48,clear sky
529,Honiara,SB,-9.4333,159.95,82.11,80,100,1.59,overcast clouds
530,Alofi,NU,-19.0595,-169.9187,80.49,89,97,4.61,overcast clouds
531,Linkoping,SE,58.4109,15.6216,40.57,86,20,0.0,fog
532,Pisco,PE,-13.7,-76.2167,66.25,77,64,5.75,mist
533,Sola,VU,-13.8833,167.55,82.17,72,100,6.8,overcast clouds
534,Chekhov,RU,55.1431,37.4711,37.35,53,58,9.19,broken clouds
535,Casablanca,MA,33.5928,-7.6192,57.42,65,56,7.72,broken clouds
536,Mackenzie,CA,55.2999,-123.1698,39.42,60,0,4.61,clear sky
537,Point Fortin,TT,10.1833,-61.6833,78.85,83,84,12.97,broken clouds
538,Jasper,US,37.2001,-94.3502,73.11,66,22,24.94,few clouds
539,Olafsvik,IS,64.8945,-23.7142,43.47,87,38,8.88,scattered clouds
540,Manokwari,ID,-0.8667,134.0833,79.56,82,100,2.51,overcast clouds
541,Panchgani,IN,17.9167,73.8167,90.03,17,2,9.86,clear sky
542,Adrar,MR,20.5022,-10.0711,68.94,23,20,8.77,few clouds
543,Bethausen,RO,45.8331,21.9528,55.18,79,8,1.92,clear sky
544,Yueyang,CN,29.3333,113.0919,57.06,90,100,11.1,overcast clouds
545,Palembang,ID,-2.9167,104.7458,89.69,62,40,3.44,scattered clouds
546,Archena,ES,38.1163,-1.3004,55.51,78,14,5.28,few clouds
547,Hashtrud,IR,37.4779,47.0508,58.96,59,85,7.25,light rain
548,Nebolchi,RU,59.1239,33.3454,36.09,64,91,7.27,overcast clouds
549,Ixtapa,MX,20.7,-105.2,73.22,63,1,1.01,clear sky
550,Saint-Augustin,CA,51.226,-58.6502,36.25,87,100,20.76,overcast clouds
551,La Salle,US,41.3334,-89.0918,57.56,64,75,21.85,broken clouds
552,Valleyview,CA,55.0667,-117.2859,32.04,100,99,2.3,snow
553,Chapais,CA,49.7834,-74.8492,28.18,96,8,4.99,clear sky
554,Nome,US,64.5011,-165.4064,40.15,74,98,11.56,overcast clouds
555,Hofn,IS,64.2539,-15.2082,45.01,63,21,4.68,few clouds
556,Tulsipur,NP,28.131,82.2973,98.96,16,2,9.37,clear sky
557,Taoudenni,ML,22.6783,-3.9836,72.43,35,27,17.36,scattered clouds
558,Kodinar,IN,20.7903,70.7031,93.07,48,0,15.23,clear sky
559,Westport,US,41.1415,-73.3579,49.82,39,0,3.0,clear sky
560,Bekwai,GH,6.4534,-1.5774,72.45,97,78,2.57,broken clouds
561,Neryungri,RU,56.6709,124.6491,33.73,45,14,1.23,few clouds
562,Likasi,CD,-10.9814,26.7333,64.72,82,99,4.03,overcast clouds
563,Martapura,ID,-3.4167,114.85,91.49,58,40,3.44,scattered clouds
564,Les Escoumins,CA,48.1111,-69.0236,31.35,95,100,12.01,overcast clouds
565,Fukue,JP,32.6881,128.8419,61.16,67,75,14.97,broken clouds
566,Palimbang,PH,6.2106,124.1894,83.12,78,95,2.75,overcast clouds
567,Palmas Bellas,PA,9.2319,-80.0867,78.26,89,93,3.31,overcast clouds
568,Minab,IR,27.1467,57.0801,91.47,40,45,9.33,scattered clouds
569,Rosetta,EG,31.4044,30.4164,67.93,77,17,13.71,few clouds
570,Umm Kaddadah,SD,13.6017,26.6876,88.12,11,74,5.41,broken clouds
571,Abdanan,IR,32.9926,47.4198,69.22,49,37,5.55,scattered clouds
572,Banepa,NP,27.6298,85.5214,83.89,28,13,7.0,few clouds
573,Sosnovo,RU,60.5514,30.2144,36.54,43,18,6.44,few clouds
574,Dutlwe,BW,-23.9833,23.9,64.56,66,34,4.99,scattered clouds
575,Severomuysk,RU,56.1481,113.4267,27.57,95,100,4.16,snow
576,Tual,ID,-5.6667,132.75,84.27,74,100,12.37,overcast clouds
577,Xinqing,CN,48.2333,129.5,46.71,67,100,3.96,light rain
578,Marsh Harbour,BS,26.5412,-77.0636,73.0,79,92,20.56,overcast clouds
579,Nouakchott,MR,18.0858,-15.9785,69.73,40,0,10.0,clear sky
580,Kununurra,AU,-15.7667,128.7333,96.78,38,40,5.75,scattered clouds
581,Murray Bridge,AU,-35.1167,139.2667,64.13,42,53,12.3,broken clouds
582,Sergeyevka,KZ,53.88,67.4158,57.74,48,53,14.25,broken clouds
583,San Jeronimo,PE,-11.9472,-75.2829,47.12,83,86,1.01,overcast clouds
584,Wageningen,NL,51.9667,5.6667,43.95,91,87,4.94,overcast clouds
585,Balykshi,KZ,47.0667,51.8667,59.0,55,40,29.08,scattered clouds
586,Trinidad,BO,-14.8333,-64.9,68.4,84,46,5.66,scattered clouds
587,Kovdor,RU,67.5662,30.4758,29.19,61,42,8.97,scattered clouds
588,Pyu,MM,18.4833,96.4333,100.22,36,59,11.41,broken clouds
589,Mahon,ES,39.8885,4.2658,55.96,82,0,6.91,clear sky
590,Gallup,US,35.5281,-108.7426,48.02,16,2,1.01,clear sky
591,Kostomuksha,RU,64.571,30.5767,31.03,67,69,8.21,broken clouds
592,Alaca,TR,40.1683,34.8425,58.91,70,76,7.43,broken clouds
593,Great Falls,US,47.5002,-111.3008,40.68,80,0,9.22,clear sky
594,Barcelona,ES,41.3888,2.159,64.33,75,0,10.36,clear sky
595,Ambovombe,MG,-25.1667,46.0833,72.25,57,0,4.61,clear sky
596,Abu Samrah,SY,35.3029,37.1841,81.64,24,36,14.05,scattered clouds
597,Ust-Kut,RU,56.7938,105.7672,59.05,79,100,10.13,overcast clouds
598,Leh,IN,34.1667,77.5833,50.16,39,59,0.67,broken clouds
599,Boa Vista,BR,2.8197,-60.6733,78.78,89,75,3.44,broken clouds
600,Tarakan,ID,3.3,117.6333,83.7,79,75,5.75,broken clouds
601,Kabanjahe,ID,3.1001,98.4908,74.7,76,94,2.73,overcast clouds
602,Karimganj,IN,24.8667,92.35,94.48,43,27,1.48,scattered clouds
603,Khandyga,RU,62.6667,135.6,36.61,65,67,1.3,broken clouds
604,Copiapo,CL,-27.3667,-70.3333,49.69,81,99,0.92,overcast clouds
605,Yeniseysk,RU,58.4497,92.1703,61.77,72,96,6.71,overcast clouds
606,Aljezur,PT,37.3191,-8.8033,56.64,78,13,2.53,few clouds
607,Ozieri,IT,40.586,9.0012,53.49,51,0,1.5,clear sky
608,Paramonga,PE,-10.6667,-77.8333,66.45,88,96,6.49,overcast clouds
609,East Liverpool,US,40.6187,-80.5773,49.55,86,100,5.19,overcast clouds
610,Lucea,JM,18.451,-78.1736,76.86,79,13,3.74,few clouds
611,San Carlos De Bariloche,AR,-41.1456,-71.3082,29.95,86,75,4.61,broken clouds
612,Tonota,BW,-21.4833,27.4833,65.62,37,0,3.89,clear sky
613,Trairi,BR,-3.2778,-39.2689,76.05,89,99,6.71,overcast clouds
614,Abu Kamal,SY,34.4506,40.9171,84.07,27,30,10.04,scattered clouds
615,Thetford Mines,CA,46.0913,-71.3013,35.28,99,91,3.24,overcast clouds
616,Camana,PE,-16.6228,-72.7111,65.5,87,88,7.96,overcast clouds
617,Plainview,US,40.7765,-73.4673,50.52,40,0,3.0,clear sky
618,Beloha,MG,-25.1667,45.05,73.36,50,0,8.48,clear sky
619,Codrington,AU,-38.2667,141.9667,61.23,57,98,16.17,overcast clouds
620,Murray,US,40.6669,-111.888,47.64,43,0,11.01,clear sky
621,Talara,PE,-4.5772,-81.2719,69.62,76,86,14.85,overcast clouds
622,San Bartolome De Tirajana,ES,27.9248,-15.5733,54.07,78,20,18.41,few clouds
623,Tilichiki,RU,60.4667,166.1,31.53,87,40,8.14,scattered clouds
624,Sortland,NO,68.6949,15.4162,35.1,67,92,6.44,light snow
